[{"Name":"Adamsfield","State":"TAS","Latitude":-42.72789,"Longitude":146.32956,"Status":"Mineral deposit","Commodity Group":"Platinum Group Elements (PGE) +\/- Cobalt +\/- Nickel"},{"Name":"Agricola","State":"SA","Latitude":-36.1867,"Longitude":139.6796,"Status":"Operating mine","Commodity Group":"Magnesium"},{"Name":"Albany","State":"WA","Latitude":-34.6968,"Longitude":118.5312,"Status":"Mineral deposit","Commodity Group":"Silicon (High purity silica\/quartz)"},{"Name":"Ambergate","State":"WA","Latitude":-34.027115,"Longitude":115.128998,"Status":"Mineral deposit","Commodity Group":"Heavy mineral sands - Titanium, Zirconium"},{"Name":"Andover","State":"WA","Latitude":-20.8545,"Longitude":117.1182,"Status":"Mineral deposit","Commodity Group":"Nickel +\/- Cobalt +\/- PGE"},{"Name":"Anduramba","State":"QLD","Latitude":-27.140851,"Longitude":152.107931,"Status":"Mineral deposit","Commodity Group":"Molybdenum +\/- Rhenium"},{"Name":"Ant Hill","State":"WA","Latitude":-22.0909,"Longitude":120.595,"Status":"Mine - care and maintenance","Commodity Group":"Manganese Ore"},{"Name":"Anthony","State":"QLD","Latitude":-22.310669,"Longitude":147.281567,"Status":"Mineral deposit","Commodity Group":"Molybdenum +\/- Rhenium"},{"Name":"Area 55","State":"NT","Latitude":-13.013899,"Longitude":130.967416,"Status":"Mineral deposit","Commodity Group":"Nickel +\/- Cobalt +\/- PGE"},{"Name":"Arrowmith Central","State":"WA","Latitude":-29.6561,"Longitude":115.1692,"Status":"Mineral deposit","Commodity Group":"Silicon (High purity silica\/quartz)"},{"Name":"Arrowsmith North","State":"WA","Latitude":-29.5129,"Longitude":115.1104,"Status":"Mineral deposit","Commodity Group":"Silicon (High purity silica\/quartz)"},{"Name":"Atacama","State":"SA","Latitude":-30.7906373,"Longitude":132.2773314,"Status":"Mineral deposit","Commodity Group":"Heavy mineral sands - Titanium, Zirconium"},{"Name":"Atlas","State":"WA","Latitude":-30.538165,"Longitude":115.248896,"Status":"Mine - under development","Commodity Group":"Heavy mineral sands - Titanium, Zirconium"},{"Name":"Atlas-Campaspe","State":"NSW","Latitude":-33.88333333,"Longitude":143.35,"Status":"Operating mine","Commodity Group":"Heavy mineral sands - Titanium, Zirconium"},{"Name":"Attunga","State":"NSW","Latitude":-30.916727,"Longitude":150.933743,"Status":"Mineral deposit","Commodity Group":"Tungsten, Molybdenum"},{"Name":"Australian Vanadium","State":"WA","Latitude":-26.967612,"Longitude":118.646257,"Status":"Mine - under development","Commodity Group":"Titanium, Vanadium"},{"Name":"Avebury","State":"TAS","Latitude":-41.92011,"Longitude":145.24854,"Status":"Operating mine","Commodity Group":"Nickel +\/- Cobalt +\/- PGE"},{"Name":"Avonbank","State":"VIC","Latitude":-36.6370481,"Longitude":142.3088796,"Status":"Mine - under development","Commodity Group":"Heavy mineral sands - Titanium, Zirconium, REE"},{"Name":"Baal Gammon","State":"QLD","Latitude":-17.3805,"Longitude":145.326922,"Status":"Mine - care and maintenance","Commodity Group":"Indium"},{"Name":"Balcanoona","State":"SA","Latitude":-30.527051,"Longitude":139.299978,"Status":"Mineral deposit","Commodity Group":"Magnesium"},{"Name":"Bald Hill","State":"WA","Latitude":-31.51981,"Longitude":122.178512,"Status":"Operating mine","Commodity Group":"Lithium +\/- Tantalum +\/- Niobium"},{"Name":"Balla Balla","State":"WA","Latitude":-20.76604,"Longitude":117.7757,"Status":"Mineral deposit","Commodity Group":"Titanium, Vanadium"},{"Name":"Balranald","State":"NSW","Latitude":-34.45993,"Longitude":143.461186,"Status":"Mine - under development","Commodity Group":"Heavy mineral sands - Titanium, Zirconium"},{"Name":"Bandalup","State":"WA","Latitude":-33.608604,"Longitude":120.35834,"Status":"Mineral deposit","Commodity Group":"Magnesium"},{"Name":"Barbara","State":"QLD","Latitude":-20.420575,"Longitude":139.851725,"Status":"Mine - care and maintenance","Commodity Group":"Cobalt"},{"Name":"Barnes Hill","State":"TAS","Latitude":-41.2212,"Longitude":146.7726,"Status":"Mineral deposit","Commodity Group":"Nickel +\/- Cobalt +\/- PGE"},{"Name":"Barrambie","State":"WA","Latitude":-27.433241,"Longitude":119.121101,"Status":"Mine - under development","Commodity Group":"Titanium, Vanadium"},{"Name":"Barrow Creek","State":"NT","Latitude":-21.5167,"Longitude":134.15,"Status":"Mineral deposit","Commodity Group":"Nickel +\/- Cobalt +\/- PGE"},{"Name":"Barton","State":"SA","Latitude":-30.5292803,"Longitude":132.6788773,"Status":"Mineral deposit","Commodity Group":"Heavy mineral sands - Titanium, Zirconium"},{"Name":"Basil","State":"NT","Latitude":-23.412885,"Longitude":135.313368,"Status":"Mineral deposit","Commodity Group":"Cobalt"},{"Name":"Beharra","State":"WA","Latitude":-29.436,"Longitude":115.1115,"Status":"Mineral deposit","Commodity Group":"Silicon (High purity silica\/quartz)"},{"Name":"Ben Lomond","State":"QLD","Latitude":-19.376951,"Longitude":146.299986,"Status":"Mineral deposit","Commodity Group":"Molybdenum +\/- Rhenium"},{"Name":"Beta Hunt","State":"WA","Latitude":-31.2403,"Longitude":121.6939,"Status":"Operating mine","Commodity Group":"Nickel +\/- Cobalt +\/- PGE"},{"Name":"Beyondie","State":"WA","Latitude":-23.1187,"Longitude":120.5514,"Status":"Mineral deposit","Commodity Group":"Manganese Ore"},{"Name":"Bidaminna","State":"WA","Latitude":-31.100482,"Longitude":115.603394,"Status":"Mineral deposit","Commodity Group":"Heavy mineral sands - Titanium, Zirconium, REE"},{"Name":"Bielsdown","State":"NSW","Latitude":-30.2256,"Longitude":152.720294,"Status":"Mineral deposit","Commodity Group":"Antimony"},{"Name":"Big Hill-Cookes Creek","State":"WA","Latitude":-21.655765,"Longitude":120.462533,"Status":"Mineral deposit","Commodity Group":"Tungsten"},{"Name":"Bigrlyi","State":"NT","Latitude":-22.220202,"Longitude":131.043202,"Status":"Mineral deposit","Commodity Group":"Vanadium"},{"Name":"Birthday Gift-Triangle","State":"NSW","Latitude":-33.483798,"Longitude":142.903675,"Status":"Mineral deposit","Commodity Group":"Heavy mineral sands - Titanium, Zirconium"},{"Name":"Black Swan","State":"WA","Latitude":-30.3934,"Longitude":121.652,"Status":"Mine - care and maintenance","Commodity Group":"Nickel +\/- Cobalt +\/- PGE"},{"Name":"Blackwater","State":"TAS","Latitude":-41.1101,"Longitude":144.9469,"Status":"Operating mine","Commodity Group":"Silicon (High purity silica\/quartz)"},{"Name":"Blue Spec","State":"WA","Latitude":-21.8209,"Longitude":120.273,"Status":"Mine - under development","Commodity Group":"Antimony"},{"Name":"Bold Head","State":"TAS","Latitude":-40.026,"Longitude":144.06685,"Status":"Mineral deposit","Commodity Group":"Tungsten"},{"Name":"Boonanarring","State":"WA","Latitude":-31.223684,"Longitude":115.834639,"Status":"Operating mine","Commodity Group":"Heavy mineral sands - Titanium, Zirconium"},{"Name":"Bootu Creek","State":"NT","Latitude":-18.699756,"Longitude":134.125836,"Status":"Mine - care and maintenance","Commodity Group":"Manganese Ore"},{"Name":"Bowry Creek","State":"TAS","Latitude":-41.558428,"Longitude":145.17102,"Status":"Mineral deposit","Commodity Group":"Magnesium"},{"Name":"Broadhurst","State":"WA","Latitude":-22.229298,"Longitude":122.218032,"Status":"Mineral deposit","Commodity Group":"Cobalt"},{"Name":"Brockman","State":"WA","Latitude":-18.32087,"Longitude":127.783709,"Status":"Mineral deposit","Commodity Group":"REE, Zirconium, Niobium, +\/- Hafnium, Lithium, Tantalum, Gallium"},{"Name":"Broken Hill","State":"NSW","Latitude":-32.05639,"Longitude":141.79058,"Status":"Mineral deposit","Commodity Group":"Cobalt"},{"Name":"Broken Hill Cobalt","State":"NSW","Latitude":-32.093,"Longitude":141.1938,"Status":"Mineral deposit","Commodity Group":"Nickel +\/- Cobalt +\/- PGE"},{"Name":"Brolga","State":"QLD","Latitude":-23.030162,"Longitude":150.299983,"Status":"Mineral deposit","Commodity Group":"Nickel +\/- Cobalt +\/- PGE"},{"Name":"Browns","State":"NT","Latitude":-12.9938704237,"Longitude":130.9975295297,"Status":"Mineral deposit","Commodity Group":"Nickel +\/- Cobalt +\/- PGE"},{"Name":"Browns Range","State":"WA","Latitude":-18.859476,"Longitude":128.939813,"Status":"Mine - care and maintenance","Commodity Group":"Rare Earth Elements (REE)"},{"Name":"Bryah Basin","State":"WA","Latitude":-25.425172679,"Longitude":118.43328257,"Status":"Mineral deposit","Commodity Group":"Manganese Ore"},{"Name":"Buldania","State":"WA","Latitude":-32.0695,"Longitude":122.0916,"Status":"Mineral deposit","Commodity Group":"Lithium +\/- Tantalum +\/- Niobium"},{"Name":"Bulong","State":"WA","Latitude":-30.6904,"Longitude":121.822,"Status":"Mineral deposit","Commodity Group":"Nickel +\/- Cobalt +\/- PGE"},{"Name":"Bungalally","State":"VIC","Latitude":-36.8001514,"Longitude":142.2488088,"Status":"Mineral deposit","Commodity Group":"Heavy mineral sands - Titanium, Zirconium, REE"},{"Name":"Bungonia","State":"NSW","Latitude":-34.7977,"Longitude":149.8714,"Status":"Mineral deposit","Commodity Group":"Cobalt"},{"Name":"Burke","State":"QLD","Latitude":-19.614886,"Longitude":140.217003,"Status":"Mineral deposit","Commodity Group":"Graphite"},{"Name":"Burns Central","State":"WA","Latitude":-31.1822583,"Longitude":122.0259733,"Status":"Mineral deposit","Commodity Group":"Cobalt"},{"Name":"Burracoppin","State":"WA","Latitude":-31.69725,"Longitude":118.71199,"Status":"Mineral deposit","Commodity Group":"Rare Earth Elements (REE)"},{"Name":"Butcherbird-Yanneri","State":"WA","Latitude":-24.4082,"Longitude":119.7068,"Status":"Operating mine","Commodity Group":"Manganese Ore"},{"Name":"Byro East","State":"WA","Latitude":-26.032269,"Longitude":116.379143,"Status":"Mineral deposit","Commodity Group":"Nickel +\/- Cobalt +\/- PGE"},{"Name":"Cadia East","State":"NSW","Latitude":-33.465,"Longitude":149.0123,"Status":"Operating mine","Commodity Group":"Molybdenum +\/- Rhenium"},{"Name":"Cadoux","State":"WA","Latitude":-30.6772,"Longitude":117.193,"Status":"Mine - under development","Commodity Group":"High Purity Alumina"},{"Name":"Callisto","State":"WA","Latitude":-32.09801,"Longitude":121.65464,"Status":"Mineral deposit","Commodity Group":"Platinum Group Elements (PGE) +\/- Cobalt +\/- Nickel"},{"Name":"Camel Creek","State":"QLD","Latitude":-18.816872853,"Longitude":145.5624845517,"Status":"Mineral deposit","Commodity Group":"Antimony"},{"Name":"Camel Flat","State":"SA","Latitude":-30.5649264,"Longitude":138.3702935,"Status":"Mineral deposit","Commodity Group":"Magnesium"},{"Name":"Camelback Bore","State":"WA","Latitude":-29.173225,"Longitude":122.253938,"Status":"Mineral deposit","Commodity Group":"Nickel +\/- Cobalt +\/- PGE"},{"Name":"Campoona","State":"SA","Latitude":-33.5278714,"Longitude":136.4790137,"Status":"Mineral deposit","Commodity Group":"Graphite"},{"Name":"Canegrass","State":"WA","Latitude":-30.20463,"Longitude":120.9849,"Status":"Mineral deposit","Commodity Group":"Nickel +\/- Cobalt +\/- PGE"},{"Name":"Canegrass","State":"WA","Latitude":-28.357139,"Longitude":118.401052,"Status":"Mineral deposit","Commodity Group":"Vanadium"},{"Name":"Cangai","State":"NSW","Latitude":-29.500096,"Longitude":152.489668,"Status":"Mineral deposit","Commodity Group":"Cobalt"},{"Name":"Canoona","State":"QLD","Latitude":-23.079712,"Longitude":150.265935,"Status":"Mineral deposit","Commodity Group":"Nickel +\/- Cobalt +\/- PGE"},{"Name":"Cape Flattery","State":"QLD","Latitude":-14.96,"Longitude":145.33,"Status":"Mineral deposit","Commodity Group":"Silicon (High purity silica\/quartz)"},{"Name":"Cape Flattery","State":"QLD","Latitude":-14.985,"Longitude":145.3228,"Status":"Operating mine","Commodity Group":"Silicon (High purity silica\/quartz)"},{"Name":"Capricorn Copper","State":"QLD","Latitude":-19.697464,"Longitude":139.365892,"Status":"Operating mine","Commodity Group":"Cobalt"},{"Name":"Caravel","State":"WA","Latitude":-30.96964,"Longitude":116.61883,"Status":"Mineral deposit","Commodity Group":"Molybdenum +\/- Rhenium"},{"Name":"Carboona","State":"NSW","Latitude":-35.824866,"Longitude":147.723739,"Status":"Mineral deposit","Commodity Group":"Fluorine"},{"Name":"Carlingup","State":"WA","Latitude":-33.572655,"Longitude":120.220907,"Status":"Mineral deposit","Commodity Group":"Nickel +\/- Cobalt +\/- PGE"},{"Name":"Carlow Castle","State":"WA","Latitude":-20.8108,"Longitude":117.0665,"Status":"Mineral deposit","Commodity Group":"Cobalt"},{"Name":"Carr Boyd","State":"WA","Latitude":-30.065901,"Longitude":121.626099,"Status":"Mineral deposit","Commodity Group":"Platinum Group Elements (PGE) +\/- Cobalt +\/- Nickel"},{"Name":"Cassini","State":"WA","Latitude":-31.700939,"Longitude":121.621101,"Status":"Operating mine","Commodity Group":"Nickel +\/- Cobalt +\/- PGE"},{"Name":"Cataby","State":"WA","Latitude":-30.7351,"Longitude":115.5387,"Status":"Operating mine","Commodity Group":"Heavy mineral sands - Titanium, Zirconium"},{"Name":"Cawse","State":"WA","Latitude":-30.368888,"Longitude":121.148544,"Status":"Mine - care and maintenance","Commodity Group":"Nickel +\/- Cobalt +\/- PGE"},{"Name":"Celia","State":"NT","Latitude":-13.031605,"Longitude":131.064863,"Status":"Mineral deposit","Commodity Group":"Magnesium"},{"Name":"Champion Road","State":"TAS","Latitude":-41.1265,"Longitude":145.4345,"Status":"Mineral deposit","Commodity Group":"Silicon (High purity silica\/quartz)"},{"Name":"Charley Creek","State":"NT","Latitude":-23.501142,"Longitude":132.874687,"Status":"Mineral deposit","Commodity Group":"Heavy mineral sands - Titanium, Zirconium, REE"},{"Name":"Circle Valley","State":"WA","Latitude":-32.99206,"Longitude":121.89102,"Status":"Mineral deposit","Commodity Group":"Rare Earth Elements (REE)"},{"Name":"Claude Hills","State":"SA","Latitude":-26.0109782,"Longitude":129.1756098,"Status":"Mineral deposit","Commodity Group":"Nickel +\/- Cobalt +\/- PGE"},{"Name":"Cleveland","State":"TAS","Latitude":-41.477024,"Longitude":145.385,"Status":"Mineral deposit","Commodity Group":"Tungsten"},{"Name":"Cliffs","State":"WA","Latitude":-27.310489,"Longitude":120.552825,"Status":"Operating mine","Commodity Group":"Nickel +\/- Cobalt +\/- PGE"},{"Name":"Coates","State":"WA","Latitude":-31.742462,"Longitude":116.412891,"Status":"Mineral deposit","Commodity Group":"Vanadium"},{"Name":"Coburn","State":"WA","Latitude":-26.70377,"Longitude":114.126953,"Status":"Operating mine","Commodity Group":"Heavy mineral sands - Titanium, Zirconium"},{"Name":"Coglia","State":"WA","Latitude":-29.01096,"Longitude":122.988448,"Status":"Mineral deposit","Commodity Group":"Nickel +\/- Cobalt +\/- PGE"},{"Name":"Conrad","State":"NSW","Latitude":-29.95492173,"Longitude":151.0244245,"Status":"Mineral deposit","Commodity Group":"Indium"},{"Name":"Contact","State":"WA","Latitude":-22.2637,"Longitude":121.1711,"Status":"Mineral deposit","Commodity Group":"Manganese Ore"},{"Name":"Cooljarloo","State":"WA","Latitude":-30.6352,"Longitude":115.4242,"Status":"Operating mine","Commodity Group":"Heavy mineral sands - Titanium, Zirconium"},{"Name":"Coolup","State":"WA","Latitude":-32.7229,"Longitude":115.941101,"Status":"Mineral deposit","Commodity Group":"Heavy mineral sands - Titanium, Zirconium"},{"Name":"Copernicus","State":"WA","Latitude":-17.658754,"Longitude":127.991043,"Status":"Mineral deposit","Commodity Group":"Nickel +\/- Cobalt +\/- PGE"},{"Name":"Copi","State":"NSW","Latitude":-33.6199,"Longitude":141.3496,"Status":"Mineral deposit","Commodity Group":"Heavy mineral sands - Titanium, Zirconium"},{"Name":"Copperhead","State":"QLD","Latitude":-20.54,"Longitude":148.31,"Status":"Mineral deposit","Commodity Group":"Molybdenum +\/- Rhenium"},{"Name":"Corella","State":"QLD","Latitude":-20.71751,"Longitude":140.20684,"Status":"Mineral deposit","Commodity Group":"Graphite"},{"Name":"Corinna","State":"TAS","Latitude":-41.6224,"Longitude":145.112,"Status":"Operating mine","Commodity Group":"Silicon (High purity silica\/quartz)"},{"Name":"Corkwood","State":"WA","Latitude":-17.295027,"Longitude":128.187729,"Status":"Mineral deposit","Commodity Group":"Nickel +\/- Cobalt +\/- PGE"},{"Name":"Coronation Dam","State":"WA","Latitude":-29.5235,"Longitude":122.2705,"Status":"Mineral deposit","Commodity Group":"Nickel +\/- Cobalt +\/- PGE"},{"Name":"Coronation Hill","State":"NT","Latitude":-13.5862,"Longitude":132.6074,"Status":"Mineral deposit","Commodity Group":"Platinum Group Elements (PGE) +\/- Cobalt +\/- Nickel"},{"Name":"Cosmos ","State":"WA","Latitude":-27.600285,"Longitude":120.576324,"Status":"Mine - under development","Commodity Group":"Nickel +\/- Cobalt +\/- PGE"},{"Name":"Costerfield","State":"VIC","Latitude":-36.8901,"Longitude":144.7910007,"Status":"Operating mine","Commodity Group":"Antimony"},{"Name":"Cowalinya","State":"WA","Latitude":-32.91,"Longitude":122.29,"Status":"Mineral deposit","Commodity Group":"Rare Earth Elements (REE)"},{"Name":"Creswick","State":"VIC","Latitude":-37.3204,"Longitude":143.8943,"Status":"Mineral deposit","Commodity Group":"Silicon (High purity silica\/quartz)"},{"Name":"Cummins Range","State":"WA","Latitude":-19.2849,"Longitude":127.1666,"Status":"Mineral deposit","Commodity Group":"Rare Earth Elements (REE)"},{"Name":"Cyclone","State":"WA","Latitude":-28.817064,"Longitude":128.732174,"Status":"Mine - under development","Commodity Group":"Heavy mineral sands - Titanium, Zirconium"},{"Name":"Cylinder-Karra","State":"NSW","Latitude":-34.141894,"Longitude":143.080119,"Status":"Mineral deposit","Commodity Group":"Heavy mineral sands - Titanium, Zirconium"},{"Name":"Debella","State":"QLD","Latitude":-19.958622,"Longitude":141.888973,"Status":"Mineral deposit","Commodity Group":"Vanadium, Molybdenum"},{"Name":"Deep Leads","State":"TAS","Latitude":-41.46,"Longitude":146.74,"Status":"Mineral deposit","Commodity Group":"Rare Earth Elements (REE)"},{"Name":"Desolation","State":"QLD","Latitude":-21.047867,"Longitude":140.556461,"Status":"Mineral deposit","Commodity Group":"Cobalt"},{"Name":"Diggers Area","State":"WA","Latitude":-32.715765,"Longitude":119.810395,"Status":"Mineral deposit","Commodity Group":"Nickel +\/- Cobalt +\/- PGE"},{"Name":"Dolphin","State":"TAS","Latitude":-40.05334,"Longitude":144.05868,"Status":"Operating mine","Commodity Group":"Tungsten"},{"Name":"Donald","State":"VIC","Latitude":-36.4993766,"Longitude":142.7814994,"Status":"Mine - under development","Commodity Group":"Heavy mineral sands - Titanium, Zirconium, REE"},{"Name":"Dongara","State":"WA","Latitude":-29.431478,"Longitude":115.142893,"Status":"Mineral deposit","Commodity Group":"Heavy mineral sands - Titanium, Zirconium"},{"Name":"Dubbo","State":"NSW","Latitude":-32.464288,"Longitude":148.623468,"Status":"Mine - under development","Commodity Group":"REE, Zirconium, Niobium, +\/- Hafnium, Lithium, Tantalum, Gallium"},{"Name":"Earaheedy","State":"WA","Latitude":-25.657,"Longitude":120.6262,"Status":"Mineral deposit","Commodity Group":"Manganese Ore"},{"Name":"East Cooee","State":"WA","Latitude":-31.34444,"Longitude":121.7889,"Status":"Mineral deposit","Commodity Group":"Nickel +\/- Cobalt +\/- PGE"},{"Name":"East Scotia","State":"WA","Latitude":-31.182255,"Longitude":121.457035,"Status":"Mineral deposit","Commodity Group":"Nickel +\/- Cobalt +\/- PGE"},{"Name":"Eastern Hills","State":"WA","Latitude":-22.8362,"Longitude":116.1233,"Status":"Mineral deposit","Commodity Group":"Antimony"},{"Name":"Elaine Dorothy","State":"QLD","Latitude":-20.80275,"Longitude":140.022769,"Status":"Mineral deposit","Commodity Group":"Rare Earth Elements (REE)"},{"Name":"Emmie Bluff","State":"SA","Latitude":-31.105136,"Longitude":137.154412,"Status":"Mineral deposit","Commodity Group":"Cobalt"},{"Name":"Enacheddong Creek","State":"WA","Latitude":-22.1312,"Longitude":121.1978,"Status":"Mineral deposit","Commodity Group":"Manganese Ore"},{"Name":"Eneabba stockpile","State":"WA","Latitude":-29.888149,"Longitude":115.303695,"Status":"Operating mine","Commodity Group":"Heavy mineral sands - Titanium, Zirconium, REE"},{"Name":"Ernest Henry","State":"QLD","Latitude":-20.444747,"Longitude":140.705845,"Status":"Operating mine","Commodity Group":"Cobalt"},{"Name":"Eulogie","State":"QLD","Latitude":-23.845304,"Longitude":150.434375,"Status":"Mineral deposit","Commodity Group":"Vanadium"},{"Name":"Faraday","State":"WA","Latitude":-31.484429,"Longitude":121.532671,"Status":"Mineral deposit","Commodity Group":"Lithium +\/- Tantalum +\/- Niobium"},{"Name":"Fingerboards","State":"VIC","Latitude":-37.7909404,"Longitude":147.3112326,"Status":"Mineral deposit","Commodity Group":"Heavy mineral sands - Titanium, Zirconium, REE"},{"Name":"Finniss","State":"NT","Latitude":-12.6666587254,"Longitude":130.7775303045,"Status":"Operating mine","Commodity Group":"Lithium +\/- Tantalum +\/- Niobium"},{"Name":"Fisher East","State":"WA","Latitude":-26.8035,"Longitude":121.5537,"Status":"Mineral deposit","Commodity Group":"Nickel +\/- Cobalt +\/- PGE"},{"Name":"Flanagan Bore","State":"WA","Latitude":-22.970133,"Longitude":120.839361,"Status":"Mineral deposit","Commodity Group":"Manganese Ore"},{"Name":"Flemington","State":"NSW","Latitude":-32.74306,"Longitude":147.392601,"Status":"Mineral deposit","Commodity Group":"Scandium +\/- Cobalt +\/- PGE +\/- Nickel"},{"Name":"Flying Fox","State":"WA","Latitude":-32.418462,"Longitude":119.688987,"Status":"Operating mine","Commodity Group":"Nickel +\/- Cobalt +\/- PGE"},{"Name":"Foster-Baker","State":"WA","Latitude":-31.348039,"Longitude":121.796488,"Status":"Mineral deposit","Commodity Group":"Nickel +\/- Cobalt +\/- PGE"},{"Name":"Four Corners ","State":"WA","Latitude":-29.31441,"Longitude":120.599999,"Status":"Mineral deposit","Commodity Group":"Nickel +\/- Cobalt +\/- PGE"},{"Name":"Frost","State":"WA","Latitude":-30.05838,"Longitude":121.64,"Status":"Mineral deposit","Commodity Group":"Nickel +\/- Cobalt +\/- PGE"},{"Name":"Gabanintha","State":"WA","Latitude":-26.941848,"Longitude":118.632465,"Status":"Mine - under development","Commodity Group":"Titanium, Vanadium"},{"Name":"Galalar","State":"QLD","Latitude":-15.317,"Longitude":145.2779,"Status":"Mineral deposit","Commodity Group":"Silicon (High purity silica\/quartz)"},{"Name":"Galileo","State":"VIC","Latitude":-34.9608,"Longitude":142.428,"Status":"Mineral deposit","Commodity Group":"Heavy mineral sands - Titanium, Zirconium"},{"Name":"Gallipoli","State":"NSW","Latitude":-33.471134,"Longitude":142.335287,"Status":"Mineral deposit","Commodity Group":"Heavy mineral sands - Titanium, Zirconium"},{"Name":"Ghan Well","State":"WA","Latitude":-28.871,"Longitude":122.132,"Status":"Mineral deposit","Commodity Group":"Nickel +\/- Cobalt +\/- PGE"},{"Name":"Ghost Rocks","State":"WA","Latitude":-29.527514,"Longitude":120.871308,"Status":"Mineral deposit","Commodity Group":"Nickel +\/- Cobalt +\/- PGE"},{"Name":"Gibson","State":"WA","Latitude":-33.596,"Longitude":122.0053,"Status":"Mineral deposit","Commodity Group":"High Purity Alumina"},{"Name":"Gilligans","State":"NSW","Latitude":-33.667365,"Longitude":142.01851,"Status":"Mineral deposit","Commodity Group":"Heavy mineral sands - Titanium, Zirconium"},{"Name":"Ginkgo-Crayfish-Snapper","State":"NSW","Latitude":-33.365916,"Longitude":142.224711,"Status":"Operating mine","Commodity Group":"Heavy mineral sands - Titanium, Zirconium"},{"Name":"Glen Eden","State":"NSW","Latitude":-29.622695,"Longitude":151.863692,"Status":"Mineral deposit","Commodity Group":"Tungsten"},{"Name":"Glenella","State":"NSW","Latitude":-33.95085,"Longitude":148.8305,"Status":"Mineral deposit","Commodity Group":"Silicon (High purity silica\/quartz)"},{"Name":"Golden Ridge","State":"WA","Latitude":-30.910614,"Longitude":121.71669,"Status":"Mineral deposit","Commodity Group":"Nickel +\/- Cobalt +\/- PGE"},{"Name":"Goodyear Nickel","State":"WA","Latitude":-31.03631,"Longitude":121.8035,"Status":"Mineral deposit","Commodity Group":"Nickel +\/- Cobalt +\/- PGE"},{"Name":"Goondicum Crater","State":"QLD","Latitude":-24.855651,"Longitude":151.433858,"Status":"Mineral deposit","Commodity Group":"Titanium"},{"Name":"Goongarrie","State":"WA","Latitude":-30.0085382015,"Longitude":121.1475971712,"Status":"Mineral deposit","Commodity Group":"Scandium +\/- Cobalt +\/- PGE +\/- Nickel"},{"Name":"Goschen","State":"VIC","Latitude":-35.5598696,"Longitude":143.5315807,"Status":"Mine - under development","Commodity Group":"Heavy mineral sands - Titanium, Zirconium, REE"},{"Name":"Goschen Central","State":"VIC","Latitude":-35.8787,"Longitude":143.35671,"Status":"Mineral deposit","Commodity Group":"Heavy mineral sands - Titanium, Zirconium, REE"},{"Name":"Governor Broome","State":"WA","Latitude":-34.24379,"Longitude":115.3993,"Status":"Mineral deposit","Commodity Group":"Heavy mineral sands - Titanium, Zirconium"},{"Name":"Great Australia Complex","State":"QLD","Latitude":-20.7206,"Longitude":140.5105,"Status":"Mine - care and maintenance","Commodity Group":"Cobalt"},{"Name":"Great White","State":"SA","Latitude":-32.8286,"Longitude":134.7393,"Status":"Mineral deposit","Commodity Group":"High Purity Alumina"},{"Name":"Greenbushes","State":"WA","Latitude":-33.8558460277,"Longitude":116.0668299566,"Status":"Operating mine","Commodity Group":"Lithium +\/- Tantalum +\/- Niobium"},{"Name":"Greenmount","State":"QLD","Latitude":-21.0255,"Longitude":140.5297,"Status":"Mineral deposit","Commodity Group":"Cobalt"},{"Name":"Grey Dam","State":"WA","Latitude":-30.4721,"Longitude":122.1492,"Status":"Mineral deposit","Commodity Group":"Nickel +\/- Cobalt +\/- PGE"},{"Name":"Griffiths Hill","State":"QLD","Latitude":-17.121233,"Longitude":144.407961,"Status":"Mineral deposit","Commodity Group":"Molybdenum +\/- Rhenium"},{"Name":"Groote Eylandt","State":"NT","Latitude":-13.992155,"Longitude":136.445549,"Status":"Operating mine","Commodity Group":"Manganese Ore"},{"Name":"Gunnawarra","State":"QLD","Latitude":-17.94852,"Longitude":145.13962,"Status":"Mineral deposit","Commodity Group":"Nickel +\/- Cobalt +\/- PGE"},{"Name":"Halidon","State":"SA","Latitude":-34.8596139,"Longitude":140.1319799,"Status":"Mineral deposit","Commodity Group":"Heavy mineral sands - Titanium, Zirconium"},{"Name":"Hammerhead","State":"SA","Latitude":-32.7737,"Longitude":134.752,"Status":"Mineral deposit","Commodity Group":"High Purity Alumina"},{"Name":"Hampton","State":"WA","Latitude":-30.466336,"Longitude":122.039178,"Status":"Mineral deposit","Commodity Group":"Nickel +\/- Cobalt +\/- PGE"},{"Name":"Happy Valley","State":"WA","Latitude":-33.5499,"Longitude":115.716202,"Status":"Mineral deposit","Commodity Group":"Heavy mineral sands - Titanium, Zirconium"},{"Name":"Hassell Beach","State":"WA","Latitude":-34.773737,"Longitude":118.415983,"Status":"Mineral deposit","Commodity Group":"Heavy mineral sands - Titanium, Zirconium"},{"Name":"Hatches Creek","State":"NT","Latitude":-20.8860916259,"Longitude":135.1880201624,"Status":"Mineral deposit","Commodity Group":"Tungsten"},{"Name":"Hawkes Creek","State":"TAS","Latitude":-41.096,"Longitude":144.8844,"Status":"Operating mine","Commodity Group":"Silicon (High purity silica\/quartz)"},{"Name":"Hawkwood","State":"QLD","Latitude":-25.788083,"Longitude":150.852837,"Status":"Mineral deposit","Commodity Group":"Titanium, Vanadium"},{"Name":"Hillgrove","State":"NSW","Latitude":-30.5745,"Longitude":151.9008722,"Status":"Mine - care and maintenance","Commodity Group":"Antimony"},{"Name":"HJ Reef","State":"QLD","Latitude":-20.674627,"Longitude":140.477248,"Status":"Mineral deposit","Commodity Group":"Silicon (High purity silica\/quartz)"},{"Name":"Holbrook","State":"NSW","Latitude":-35.7165,"Longitude":147.3616,"Status":"Mineral deposit","Commodity Group":"Molybdenum +\/- Rhenium"},{"Name":"Home of Bullion","State":"NT","Latitude":-21.5127,"Longitude":134.1564,"Status":"Mineral deposit","Commodity Group":"Cobalt"},{"Name":"Homeville","State":"NSW","Latitude":-32.010495,"Longitude":147.048706,"Status":"Mineral deposit","Commodity Group":"Nickel +\/- Cobalt +\/- PGE"},{"Name":"Honeymoon Well","State":"WA","Latitude":-26.92,"Longitude":120.379,"Status":"Mineral deposit","Commodity Group":"Nickel +\/- Cobalt +\/- PGE"},{"Name":"Hopelands East","State":"WA","Latitude":-32.396259,"Longitude":115.906987,"Status":"Mineral deposit","Commodity Group":"Heavy mineral sands - Titanium, Zirconium"},{"Name":"Horseshoe","State":"QLD","Latitude":-20.963933,"Longitude":140.284206,"Status":"Mineral deposit","Commodity Group":"Cobalt"},{"Name":"Huandot","State":"NT","Latitude":-13.00292,"Longitude":131.10359,"Status":"Mineral deposit","Commodity Group":"Magnesium"},{"Name":"Hurlls Hill","State":"NSW","Latitude":-31.48093698,"Longitude":152.8673896,"Status":"Mineral deposit","Commodity Group":"Scandium +\/- Cobalt +\/- PGE +\/- Nickel"},{"Name":"Irwin-Coglia","State":"WA","Latitude":-29.15474,"Longitude":123.046,"Status":"Mineral deposit","Commodity Group":"Nickel +\/- Cobalt +\/- PGE"},{"Name":"Isabel (Herberton)","State":"QLD","Latitude":-17.385592,"Longitude":145.3632,"Status":"Mineral deposit","Commodity Group":"Indium"},{"Name":"Jacinth-Ambrosia","State":"SA","Latitude":-30.9076433,"Longitude":132.2202734,"Status":"Operating mine","Commodity Group":"Heavy mineral sands - Titanium, Zirconium"},{"Name":"Jamieson Tank","State":"SA","Latitude":-33.4719843,"Longitude":136.3237378,"Status":"Mineral deposit","Commodity Group":"Manganese Ore"},{"Name":"Jasper Block","State":"QLD","Latitude":-20.6883,"Longitude":140.5143,"Status":"Mineral deposit","Commodity Group":"Cobalt"},{"Name":"Jaws","State":"NSW","Latitude":"\u00a0-33.8565","Longitude":142.060875,"Status":"Mineral deposit","Commodity Group":"Heavy mineral sands - Titanium, Zirconium"},{"Name":"Jericho","State":"WA","Latitude":-27.3899,"Longitude":120.5755,"Status":"Mineral deposit","Commodity Group":"Nickel +\/- Cobalt +\/- PGE"},{"Name":"Jimberlana","State":"WA","Latitude":-32.237025,"Longitude":120.454238,"Status":"Mineral deposit","Commodity Group":"Nickel +\/- Cobalt +\/- PGE"},{"Name":"John Galt","State":"WA","Latitude":-17.345804,"Longitude":128.201291,"Status":"Mineral deposit","Commodity Group":"Rare Earth Elements (REE)"},{"Name":"John Hill","State":"QLD","Latitude":-24.696128,"Longitude":150.860283,"Status":"Mineral deposit","Commodity Group":"Molybdenum +\/- Rhenium"},{"Name":"Julia Creek","State":"QLD","Latitude":-20.63909,"Longitude":141.859002,"Status":"Mineral deposit","Commodity Group":"Vanadium, Molybdenum"},{"Name":"Julimar","State":"WA","Latitude":-31.5216,"Longitude":116.2102,"Status":"Mineral deposit","Commodity Group":"Platinum Group Elements (PGE) +\/- Cobalt +\/- Nickel"},{"Name":"Jurien","State":"WA","Latitude":-30.3447,"Longitude":115.1773,"Status":"Mineral deposit","Commodity Group":"Heavy mineral sands - Titanium, Zirconium"},{"Name":"Kalkaroo","State":"SA","Latitude":-31.729,"Longitude":140.525,"Status":"Mineral deposit","Commodity Group":"Molybdenum +\/- Rhenium"},{"Name":"Kalman","State":"QLD","Latitude":-21.0459,"Longitude":139.967,"Status":"Mineral deposit","Commodity Group":"Molybdenum +\/- Rhenium"},{"Name":"Kara","State":"TAS","Latitude":-41.30964,"Longitude":145.7746,"Status":"Operating mine","Commodity Group":"Tungsten"},{"Name":"Kara No. 2","State":"TAS","Latitude":-41.31053,"Longitude":145.840351,"Status":"Mineral deposit","Commodity Group":"Tungsten"},{"Name":"Kathleen Valley","State":"WA","Latitude":-27.4694,"Longitude":120.5581,"Status":"Mine - under development","Commodity Group":"Lithium +\/- Tantalum +\/- Niobium"},{"Name":"Kemerton","State":"WA","Latitude":-33.178101,"Longitude":115.744102,"Status":"Mineral deposit","Commodity Group":"Heavy mineral sands - Titanium, Zirconium"},{"Name":"Kerrigan-Bradley","State":"WA","Latitude":-32.6608,"Longitude":118.8313,"Status":"Mineral deposit","Commodity Group":"High Purity Alumina"},{"Name":"Keysbrook","State":"WA","Latitude":-32.468661,"Longitude":115.942379,"Status":"Operating mine","Commodity Group":"Heavy mineral sands - Titanium, Zirconium"},{"Name":"Kiaka Hills\u00a0","State":"WA\u00a0","Latitude":-30.452901,"Longitude":116.0984,"Status":"Mineral deposit","Commodity Group":"Silicon (High purity silica\/quartz)"},{"Name":"Kilba","State":"WA","Latitude":-22.779679,"Longitude":115.552375,"Status":"Mineral deposit","Commodity Group":"Tungsten"},{"Name":"King Island Tailings","State":"TAS","Latitude":-40.0472,"Longitude":144.0734,"Status":"Mineral deposit","Commodity Group":"Tungsten"},{"Name":"King Tamba","State":"WA","Latitude":-27.71076,"Longitude":117.21688,"Status":"Mineral deposit","Commodity Group":"Lithium +\/- Tantalum +\/- Niobium"},{"Name":"Kookaburra Gully","State":"SA","Latitude":-34.4002,"Longitude":135.9107,"Status":"Mineral deposit","Commodity Group":"Graphite"},{"Name":"Koppamurra","State":"SA","Latitude":-36.82777,"Longitude":140.84887,"Status":"Mineral deposit","Commodity Group":"Rare Earth Elements (REE)"},{"Name":"Koppio","State":"SA","Latitude":-34.4274,"Longitude":135.9072,"Status":"Mineral deposit","Commodity Group":"Graphite"},{"Name":"Korella","State":"QLD","Latitude":-21.93875,"Longitude":139.975706,"Status":"Mineral deposit","Commodity Group":"Rare Earth Elements (REE)"},{"Name":"Kulwin-Woornack","State":"VIC","Latitude":-35.056796,"Longitude":142.632001,"Status":"Mineral deposit","Commodity Group":"Heavy mineral sands - Titanium, Zirconium"},{"Name":"Kunwarara","State":"QLD","Latitude":-22.8814,"Longitude":150.1869,"Status":"Operating mine","Commodity Group":"Magnesium"},{"Name":"Kuridala","State":"QLD","Latitude":-21.2751494792,"Longitude":140.50598301,"Status":"Mineral deposit","Commodity Group":"Cobalt"},{"Name":"Lagoon Hill","State":"QLD","Latitude":-23.074401,"Longitude":150.219206,"Status":"Mineral deposit","Commodity Group":"Nickel +\/- Cobalt +\/- PGE"},{"Name":"Lake Hope","State":"WA","Latitude":-32.41,"Longitude":120.25,"Status":"Mineral deposit","Commodity Group":"High Purity Alumina"},{"Name":"Lake Maitland","State":"WA","Latitude":-27.177204,"Longitude":121.081858,"Status":"Mine - under development","Commodity Group":"Vanadium"},{"Name":"Lake Rebecca","State":"WA","Latitude":-30.065488,"Longitude":122.35701,"Status":"Mineral deposit","Commodity Group":"Nickel +\/- Cobalt +\/- PGE"},{"Name":"Lanfranchi","State":"WA","Latitude":-31.50546,"Longitude":121.8429,"Status":"Mine - care and maintenance","Commodity Group":"Nickel +\/- Cobalt +\/- PGE"},{"Name":"Larkin Find","State":"WA","Latitude":-29.466346,"Longitude":122.257675,"Status":"Mineral deposit","Commodity Group":"Nickel +\/- Cobalt +\/- PGE"},{"Name":"Lava Plains","State":"QLD","Latitude":-18.4363,"Longitude":144.7563,"Status":"Mineral deposit","Commodity Group":"High Purity Alumina"},{"Name":"Lawlers","State":"WA","Latitude":-28.096689,"Longitude":120.640503,"Status":"Mineral deposit","Commodity Group":"Magnesium"},{"Name":"Leinster","State":"WA","Latitude":-28.1674,"Longitude":120.9166,"Status":"Operating mine","Commodity Group":"Nickel +\/- Cobalt +\/- PGE"},{"Name":"Lighthouse","State":"QLD","Latitude":-18.3944,"Longitude":144.1733,"Status":"Mine - care and maintenance","Commodity Group":"Silicon (High purity silica\/quartz)"},{"Name":"Lucky Bay","State":"WA","Latitude":-28.02938,"Longitude":114.183055,"Status":"Operating mine","Commodity Group":"Titanium"},{"Name":"Lucky Break","State":"QLD","Latitude":-19.479628,"Longitude":145.690753,"Status":"Mineral deposit","Commodity Group":"Nickel +\/- Cobalt +\/- PGE"},{"Name":"Lyons","State":"WA","Latitude":-23.9875,"Longitude":116.35049,"Status":"Mineral deposit","Commodity Group":"Rare Earth Elements (REE)"},{"Name":"Lyons River","State":"TAS","Latitude":-41.218508,"Longitude":145.401374,"Status":"Mineral deposit","Commodity Group":"Magnesium"},{"Name":"Maggie Hays","State":"WA","Latitude":-32.222472,"Longitude":120.516998,"Status":"Mine - care and maintenance","Commodity Group":"Nickel +\/- Cobalt +\/- PGE"},{"Name":"Main Creek","State":"TAS","Latitude":-41.539817,"Longitude":145.161834,"Status":"Mineral deposit","Commodity Group":"Magnesium"},{"Name":"Maitland","State":"QLD","Latitude":-18.9763,"Longitude":144.4036,"Status":"Mineral deposit","Commodity Group":"Molybdenum +\/- Rhenium"},{"Name":"Malinda","State":"WA","Latitude":-24.50563,"Longitude":116.2722,"Status":"Mineral deposit","Commodity Group":"Lithium +\/- Tantalum +\/- Niobium"},{"Name":"Mangaroon","State":"WA","Latitude":-23.956,"Longitude":116.033,"Status":"Mineral deposit","Commodity Group":"Rare Earth Elements (REE)"},{"Name":"Manna","State":"WA","Latitude":-30.87,"Longitude":122.53,"Status":"Mineral deposit","Commodity Group":"Lithium +\/- Tantalum +\/- Niobium"},{"Name":"Maralla Road","State":"WA","Latitude":-31.7388,"Longitude":115.9704,"Status":"Operating mine","Commodity Group":"Silicon (High purity silica\/quartz)"},{"Name":"Marble Bar","State":"WA","Latitude":-21.1881,"Longitude":119.864,"Status":"Mineral deposit","Commodity Group":"Lithium +\/- Tantalum +\/- Niobium"},{"Name":"Maroochydore","State":"WA","Latitude":-22.199101,"Longitude":122.314124,"Status":"Mineral deposit","Commodity Group":"Cobalt"},{"Name":"Marriott","State":"WA","Latitude":-28.449127,"Longitude":120.991479,"Status":"Mineral deposit","Commodity Group":"Nickel +\/- Cobalt +\/- PGE"},{"Name":"Mary Kathleen","State":"QLD","Latitude":-20.715458,"Longitude":140.00395,"Status":"Mineral deposit","Commodity Group":"Rare Earth Elements (REE)"},{"Name":"Massidon","State":"NSW","Latitude":-33.13064,"Longitude":141.34436,"Status":"Mineral deposit","Commodity Group":"Heavy mineral sands - Titanium, Zirconium"},{"Name":"Maureen","State":"QLD","Latitude":-18.002988,"Longitude":143.426994,"Status":"Mineral deposit","Commodity Group":"Molybdenum +\/- Rhenium"},{"Name":"Mawson","State":"WA","Latitude":-30.737455,"Longitude":124.446755,"Status":"Mineral deposit","Commodity Group":"Nickel +\/- Cobalt +\/- PGE"},{"Name":"May Downs","State":"Qld\u00a0","Latitude":-20.656988,"Longitude":139.414923,"Status":"Mineral deposit","Commodity Group":"Silicon (High purity silica\/quartz)"},{"Name":"Maydena","State":"TAS","Latitude":-42.7768,"Longitude":146.5894,"Status":"Mineral deposit","Commodity Group":"Silicon (High purity silica\/quartz)"},{"Name":"McCabe","State":"QLD","Latitude":-21.0673,"Longitude":140.4894,"Status":"Mineral deposit","Commodity Group":"Cobalt"},{"Name":"McCalls","State":"WA","Latitude":-30.957823,"Longitude":115.929419,"Status":"Mineral deposit","Commodity Group":"Heavy mineral sands - Titanium, Zirconium"},{"Name":"McIntosh","State":"WA","Latitude":-17.6111,"Longitude":127.9626,"Status":"Mineral deposit","Commodity Group":"Graphite"},{"Name":"Meckering","State":"WA","Latitude":-31.6847,"Longitude":117.0608,"Status":"Mineral deposit","Commodity Group":"High Purity Alumina"},{"Name":"Medcalf","State":"WA","Latitude":-32.533848,"Longitude":120.793119,"Status":"Mineral deposit","Commodity Group":"Titanium, Vanadium"},{"Name":"Meecharra","State":"WA","Latitude":-22.07663,"Longitude":120.40429,"Status":"Mineral deposit","Commodity Group":"Manganese Ore"},{"Name":"Meentheena","State":"WA","Latitude":-21.236779,"Longitude":120.474167,"Status":"Mineral deposit","Commodity Group":"Fluorine"},{"Name":"Melba Flats","State":"TAS","Latitude":-41.85,"Longitude":145.383333,"Status":"Mineral deposit","Commodity Group":"Nickel +\/- Cobalt +\/- PGE"},{"Name":"Mercury","State":"VIC","Latitude":-34.898889,"Longitude":142.352222,"Status":"Mineral deposit","Commodity Group":"Heavy mineral sands - Titanium, Zirconium"},{"Name":"Merlin","State":"QLD","Latitude":-21.653303,"Longitude":140.493067,"Status":"Mine - care and maintenance","Commodity Group":"Molybdenum +\/- Rhenium"},{"Name":"MG14","State":"SA","Latitude":-31.4346364,"Longitude":137.1509177,"Status":"Mineral deposit","Commodity Group":"Cobalt"},{"Name":"Millennium","State":"QLD","Latitude":-20.596767,"Longitude":140.194258,"Status":"Mineral deposit","Commodity Group":"Cobalt"},{"Name":"Milo","State":"QLD","Latitude":-20.758736,"Longitude":140.22215,"Status":"Mineral deposit","Commodity Group":"Rare Earth Elements (REE)"},{"Name":"Mindarie","State":"SA","Latitude":-34.7562791,"Longitude":140.13893,"Status":"Mine - under development","Commodity Group":"Heavy mineral sands - Titanium, Zirconium"},{"Name":"Mindijup","State":"WA","Latitude":-34.7689,"Longitude":118.0768,"Status":"Operating mine","Commodity Group":"Silicon (High purity silica\/quartz)"},{"Name":"Mineral Patch Hill","State":"WA","Latitude":-29.0369,"Longitude":122.984596,"Status":"Mineral deposit","Commodity Group":"Nickel +\/- Cobalt +\/- PGE"},{"Name":"Miriam","State":"WA","Latitude":-31.071162,"Longitude":121.087836,"Status":"Mineral deposit","Commodity Group":"Nickel +\/- Cobalt +\/- PGE"},{"Name":"Mission Sill","State":"WA","Latitude":-32.2016,"Longitude":121.6646,"Status":"Mineral deposit","Commodity Group":"Nickel +\/- Cobalt +\/- PGE"},{"Name":"Mitre Hill","State":"VIC","Latitude":-37.22538,"Longitude":140.99598,"Status":"Mineral deposit","Commodity Group":"Rare Earth Elements (REE)"},{"Name":"Moina","State":"TAS","Latitude":-41.4885,"Longitude":146.0802,"Status":"Mineral deposit","Commodity Group":"Tungsten"},{"Name":"Molyhil","State":"NT","Latitude":-22.75894,"Longitude":135.750307,"Status":"Mine - under development","Commodity Group":"Tungsten, Molybdenum"},{"Name":"Monogorilby","State":"QLD","Latitude":-26.0644,"Longitude":151.0263,"Status":"Mineral deposit","Commodity Group":"Titanium, Vanadium"},{"Name":"Moora","State":"WA","Latitude":-30.515323,"Longitude":116.03445,"Status":"Operating mine","Commodity Group":"Silicon (High purity silica\/quartz)"},{"Name":"Mount Cannindah","State":"QLD","Latitude":-24.6697,"Longitude":151.2734,"Status":"Mineral deposit","Commodity Group":"Molybdenum +\/- Rhenium"},{"Name":"Mount Carbine","State":"QLD","Latitude":-16.52405,"Longitude":145.1321,"Status":"Operating mine","Commodity Group":"Tungsten"},{"Name":"Mount Cattlin","State":"WA","Latitude":-33.5625,"Longitude":120.034,"Status":"Operating mine","Commodity Group":"Lithium +\/- Tantalum +\/- Niobium"},{"Name":"Mount Cobalt","State":"QLD","Latitude":-26.19623,"Longitude":152.2759,"Status":"Mineral deposit","Commodity Group":"Nickel +\/- Cobalt +\/- PGE"},{"Name":"Mount Deans","State":"WA","Latitude":-32.3045,"Longitude":121.7851,"Status":"Mineral deposit","Commodity Group":"Lithium +\/- Tantalum +\/- Niobium"},{"Name":"Mount Dromedary","State":"QLD","Latitude":-19.617972,"Longitude":140.216003,"Status":"Mineral deposit","Commodity Group":"Graphite"},{"Name":"Mount Fitch","State":"NT","Latitude":-12.946771,"Longitude":130.94833,"Status":"Mineral deposit","Commodity Group":"Nickel +\/- Cobalt +\/- PGE"},{"Name":"Mount Holland","State":"WA","Latitude":-32.0876,"Longitude":119.7485,"Status":"Mine - under development","Commodity Group":"Lithium +\/- Tantalum +\/- Niobium"},{"Name":"Mount Hope","State":"SA","Latitude":-34.1629,"Longitude":135.3798,"Status":"Mineral deposit","Commodity Group":"High Purity Alumina"},{"Name":"Mount Hutton","State":"SA","Latitude":-30.4889675556,"Longitude":138.3019787991,"Status":"Mineral deposit","Commodity Group":"Magnesium"},{"Name":"Mount Ida","State":"WA","Latitude":-29.094,"Longitude":120.461,"Status":"Mineral deposit","Commodity Group":"Lithium +\/- Tantalum +\/- Niobium"},{"Name":"Mount Isa","State":"QLD","Latitude":-20.743392,"Longitude":139.478345,"Status":"Operating mine","Commodity Group":"Cobalt"},{"Name":"Mount Jewell","State":"WA","Latitude":-30.180412,"Longitude":121.455984,"Status":"Mineral deposit","Commodity Group":"Nickel +\/- Cobalt +\/- PGE"},{"Name":"Mount Keith","State":"WA","Latitude":-27.229599,"Longitude":120.54174,"Status":"Operating mine","Commodity Group":"Nickel +\/- Cobalt +\/- PGE"},{"Name":"Mount Lindsay","State":"TAS","Latitude":-41.69731,"Longitude":145.32857,"Status":"Mineral deposit","Commodity Group":"Tungsten"},{"Name":"Mount Margaret","State":"WA","Latitude":-28.311858,"Longitude":120.986092,"Status":"Mineral deposit","Commodity Group":"Nickel +\/- Cobalt +\/- PGE"},{"Name":"Mount Marion","State":"WA","Latitude":-31.0738,"Longitude":121.4611,"Status":"Operating mine","Commodity Group":"Lithium +\/- Tantalum +\/- Niobium"},{"Name":"Mount Martin","State":"WA","Latitude":-31.008934,"Longitude":121.680038,"Status":"Mineral deposit","Commodity Group":"Nickel +\/- Cobalt +\/- PGE"},{"Name":"Mount Mulcahy","State":"WA","Latitude":-27.053445,"Longitude":117.697025,"Status":"Mineral deposit","Commodity Group":"Cobalt"},{"Name":"Mount Mulgine","State":"WA","Latitude":-29.1785,"Longitude":116.9774,"Status":"Mineral deposit","Commodity Group":"Tungsten, Molybdenum"},{"Name":"Mount Oxide","State":"QLD","Latitude":-19.47865,"Longitude":139.388303,"Status":"Mineral deposit","Commodity Group":"Cobalt"},{"Name":"Mount Paynter","State":"NSW","Latitude":-35.9003676154,"Longitude":147.6301468451,"Status":"Mineral deposit","Commodity Group":"Tungsten"},{"Name":"Mount Peak","State":"QLD","Latitude":-21.628965,"Longitude":133.295394,"Status":"Mineral deposit","Commodity Group":"Titanium, Vanadium"},{"Name":"Mount Playfair","State":"SA","Latitude":-30.3980354,"Longitude":138.2123756,"Status":"Mineral deposit","Commodity Group":"Magnesium"},{"Name":"Mount Rove","State":"WA","Latitude":-22.041753,"Longitude":120.797198,"Status":"Mineral deposit","Commodity Group":"Manganese Ore"},{"Name":"Mount Sholl","State":"WA","Latitude":-20.91229,"Longitude":116.89205,"Status":"Mineral deposit","Commodity Group":"Nickel +\/- Cobalt +\/- PGE"},{"Name":"Mount Tabor","State":"QLD","Latitude":-25.0566,"Longitude":147.5774,"Status":"Mineral deposit","Commodity Group":"Cobalt"},{"Name":"Mount Thirsty","State":"WA","Latitude":-32.1019,"Longitude":121.6478,"Status":"Mineral deposit","Commodity Group":"Nickel +\/- Cobalt +\/- PGE"},{"Name":"Mount Weld","State":"WA","Latitude":-28.8599485855,"Longitude":122.5475227233,"Status":"Operating mine","Commodity Group":"REE, Zirconium, Niobium, +\/- Hafnium, Lithium, Tantalum, Gallium"},{"Name":"Mount Windarra","State":"WA","Latitude":-28.4852,"Longitude":122.233,"Status":"Mine - care and maintenance","Commodity Group":"Nickel +\/- Cobalt +\/- PGE"},{"Name":"Muchea","State":"WA","Latitude":-31.4946,"Longitude":115.8822,"Status":"Mineral deposit","Commodity Group":"Silicon (High purity silica\/quartz)"},{"Name":"Mulga Downs","State":"WA","Latitude":-22.1084,"Longitude":118.5722,"Status":"Mineral deposit","Commodity Group":"Manganese Ore"},{"Name":"Mulga Rock","State":"WA","Latitude":-29.904345,"Longitude":123.592004,"Status":"Mineral deposit","Commodity Group":"Scandium +\/- Cobalt +\/- PGE +\/- Nickel"},{"Name":"Munglinup","State":"WA","Latitude":-33.6635,"Longitude":120.8586,"Status":"Mine - under development","Commodity Group":"Graphite"},{"Name":"Munni Munni","State":"WA","Latitude":-21.116989,"Longitude":116.829597,"Status":"Mineral deposit","Commodity Group":"Platinum Group Elements (PGE) +\/- Cobalt +\/- Nickel"},{"Name":"Murrin Murrin","State":"WA","Latitude":-28.7668,"Longitude":121.893,"Status":"Operating mine","Commodity Group":"Nickel +\/- Cobalt +\/- PGE"},{"Name":"Mutooroo","State":"SA","Latitude":-32.2496386,"Longitude":140.9380101,"Status":"Mineral deposit","Commodity Group":"Cobalt"},{"Name":"Myrtle Springs","State":"SA","Latitude":-30.4168574,"Longitude":138.2258076,"Status":"Operating mine","Commodity Group":"Magnesium"},{"Name":"Nanadie Well","State":"WA","Latitude":-27.1599,"Longitude":118.9485,"Status":"Mineral deposit","Commodity Group":"Nickel +\/- Cobalt +\/- PGE"},{"Name":"Narraburra","State":"NSW","Latitude":-34.316178,"Longitude":147.55509,"Status":"Mineral deposit","Commodity Group":"REE, Zirconium, Niobium, +\/- Hafnium, Lithium, Tantalum, Gallium"},{"Name":"Nebo-Babel","State":"WA","Latitude":-26.0954,"Longitude":127.7274,"Status":"Mine - under development","Commodity Group":"Nickel +\/- Cobalt +\/- PGE"},{"Name":"Nepean","State":"WA","Latitude":-31.1637,"Longitude":121.0857,"Status":"Mineral deposit","Commodity Group":"Nickel +\/- Cobalt +\/- PGE"},{"Name":"New Hope","State":"QLD","Latitude":-21.72926111,"Longitude":140.4940278,"Status":"Mineral deposit","Commodity Group":"Cobalt"},{"Name":"Nicholas Downs","State":"WA","Latitude":-22.7739,"Longitude":120.8943,"Status":"Mine - care and maintenance","Commodity Group":"Manganese Ore"},{"Name":"Nico Young","State":"NSW","Latitude":-34.17254615,"Longitude":148.0808372,"Status":"Mineral deposit","Commodity Group":"Nickel +\/- Cobalt +\/- PGE"},{"Name":"Night Train","State":"WA","Latitude":-17.580447,"Longitude":123.113079,"Status":"Mineral deposit","Commodity Group":"Heavy mineral sands - Titanium, Zirconium"},{"Name":"Niobe","State":"WA","Latitude":-27.70759,"Longitude":117.26706,"Status":"Mineral deposit","Commodity Group":"Lithium +\/- Tantalum +\/- Niobium"},{"Name":"NiWest","State":"WA","Latitude":-28.8633,"Longitude":121.793,"Status":"Mineral deposit","Commodity Group":"Nickel +\/- Cobalt +\/- PGE"},{"Name":"NMBD","State":"WA","Latitude":-32.450402,"Longitude":119.680074,"Status":"Mineral deposit","Commodity Group":"Nickel +\/- Cobalt +\/- PGE"},{"Name":"Nobles Nob","State":"NT","Latitude":-19.711476,"Longitude":134.290138,"Status":"Mine - under development","Commodity Group":"Bismuth +\/- Cobalt +\/- Indium"},{"Name":"Nolans Bore","State":"NT","Latitude":-22.582117,"Longitude":133.239865,"Status":"Mine - under development","Commodity Group":"Rare Earth Elements (REE)"},{"Name":"North Stanmore","State":"WA","Latitude":-27.345682584,"Longitude":117.909895747,"Status":"Mineral deposit","Commodity Group":"Rare Earth Elements (REE)"},{"Name":"North Telfer","State":"WA","Latitude":-21.37801,"Longitude":122.24893,"Status":"Mineral deposit","Commodity Group":"Cobalt"},{"Name":"Northcote","State":"QLD","Latitude":-17.0058,"Longitude":145.1571,"Status":"Mine - under development","Commodity Group":"Antimony"},{"Name":"Northern Operations","State":"WA","Latitude":-31.16898,"Longitude":121.6514,"Status":"Operating mine","Commodity Group":"Nickel +\/- Cobalt +\/- PGE"},{"Name":"Nova","State":"WA","Latitude":-29.9217,"Longitude":115.3661,"Status":"Mineral deposit","Commodity Group":"Silicon (High purity silica\/quartz)"},{"Name":"Nova-Bollinger","State":"WA","Latitude":-31.8199,"Longitude":123.1924,"Status":"Operating mine","Commodity Group":"Nickel +\/- Cobalt +\/- PGE"},{"Name":"Nyngan","State":"NSW","Latitude":-31.609021,"Longitude":146.993674,"Status":"Mineral deposit","Commodity Group":"Scandium +\/- Cobalt +\/- PGE +\/- Nickel"},{"Name":"Oakover","State":"WA","Latitude":-23.3066,"Longitude":120.6807,"Status":"Mineral deposit","Commodity Group":"Manganese Ore"},{"Name":"Oar","State":"SA","Latitude":-33.8036024,"Longitude":135.5131868,"Status":"Mineral deposit","Commodity Group":"Graphite"},{"Name":"O'Callaghans","State":"WA","Latitude":-21.792101,"Longitude":122.258499,"Status":"Mineral deposit","Commodity Group":"Tungsten"},{"Name":"O'Connor","State":"WA","Latitude":-33.18709,"Longitude":122.8422,"Status":"Mineral deposit","Commodity Group":"Rare Earth Elements (REE)"},{"Name":"Olympia","State":"WA","Latitude":-26.8204,"Longitude":122.1873,"Status":"Mineral deposit","Commodity Group":"Nickel +\/- Cobalt +\/- PGE"},{"Name":"Olympic Dam","State":"SA","Latitude":-30.4403264,"Longitude":136.8893697,"Status":"Operating mine","Commodity Group":"Rare Earth Elements (REE)"},{"Name":"Overlander","State":"QLD","Latitude":-21.033811,"Longitude":139.909472,"Status":"Mineral deposit","Commodity Group":"Cobalt"},{"Name":"Owendale","State":"NSW","Latitude":-32.575,"Longitude":147.384375,"Status":"Mine - under development","Commodity Group":"Scandium +\/- Cobalt +\/- PGE +\/- Nickel"},{"Name":"Pacific Express","State":"NSW","Latitude":-31.520533,"Longitude":152.790446,"Status":"Mineral deposit","Commodity Group":"Scandium +\/- Cobalt +\/- PGE +\/- Nickel"},{"Name":"Panton","State":"WA","Latitude":-17.7515,"Longitude":127.8316,"Status":"Mineral deposit","Commodity Group":"Platinum Group Elements (PGE) +\/- Cobalt +\/- Nickel"},{"Name":"Parks Reef","State":"WA","Latitude":-26.845,"Longitude":117.7392,"Status":"Mineral deposit","Commodity Group":"Platinum Group Elements (PGE) +\/- Cobalt +\/- Nickel"},{"Name":"Peak Hill","State":"WA","Latitude":-25.4572000234,"Longitude":118.6050225141,"Status":"Mineral deposit","Commodity Group":"Manganese Ore"},{"Name":"Peko Tailings","State":"NT","Latitude":-19.678213,"Longitude":134.283779,"Status":"Operating mine","Commodity Group":"Cobalt"},{"Name":"Pelican","State":"WA","Latitude":-28.778877,"Longitude":122.575278,"Status":"Mineral deposit","Commodity Group":"Nickel +\/- Cobalt +\/- PGE"},{"Name":"Perponda South","State":"SA","Latitude":-32.3073734,"Longitude":138.4387364,"Status":"Mineral deposit","Commodity Group":"Heavy mineral sands - Titanium, Zirconium"},{"Name":"Perry Creek","State":"QLD","Latitude":-18.729666,"Longitude":145.334684,"Status":"Mineral deposit","Commodity Group":"Tungsten"},{"Name":"Phoenix","State":"NSW","Latitude":-34.468497,"Longitude":143.307284,"Status":"Mineral deposit","Commodity Group":"Heavy mineral sands - Titanium, Zirconium"},{"Name":"Pilgangoora","State":"WA","Latitude":-21.0723,"Longitude":118.8953,"Status":"Operating mine","Commodity Group":"Lithium +\/- Tantalum +\/- Niobium"},{"Name":"Pinnacles","State":"QLD","Latitude":-17.702147,"Longitude":145.171088,"Status":"Mineral deposit","Commodity Group":"Fluorine"},{"Name":"Pinnacles","State":"WA","Latitude":-30.27578,"Longitude":122.324177,"Status":"Mineral deposit","Commodity Group":"Nickel +\/- Cobalt +\/- PGE"},{"Name":"Pioneer","State":"WA","Latitude":-31.969742,"Longitude":121.643099,"Status":"Mineral deposit","Commodity Group":"Nickel +\/- Cobalt +\/- PGE"},{"Name":"Pioneer Dome","State":"WA","Latitude":-31.9103,"Longitude":121.6376,"Status":"Mineral deposit","Commodity Group":"Lithium +\/- Tantalum +\/- Niobium"},{"Name":"Portia","State":"SA","Latitude":-31.4338937142,"Longitude":140.451072115,"Status":"Mineral deposit","Commodity Group":"Cobalt"},{"Name":"Princhester","State":"QLD","Latitude":-22.862,"Longitude":149.977,"Status":"Mineral deposit","Commodity Group":"Magnesium"},{"Name":"Prospect Ridge-Arthur River","State":"TAS","Latitude":-41.1813,"Longitude":145.4488,"Status":"Mineral deposit","Commodity Group":"Magnesium"},{"Name":"Pug Hill","State":"SA","Latitude":-30.3093804,"Longitude":138.1135796,"Status":"Mineral deposit","Commodity Group":"Magnesium"},{"Name":"Puwanapi","State":"NT","Latitude":-11.74,"Longitude":130.07,"Status":"Mineral deposit","Commodity Group":"Heavy mineral sands - Titanium, Zirconium"},{"Name":"Pyke Hill","State":"WA","Latitude":-29.052096,"Longitude":122.152919,"Status":"Mineral deposit","Commodity Group":"Nickel +\/- Cobalt +\/- PGE"},{"Name":"Quartz Hill","State":"QLD","Latitude":-18.0931,"Longitude":144.2399,"Status":"Mineral deposit","Commodity Group":"Silicon (High purity silica\/quartz)"},{"Name":"Quicksilver","State":"WA","Latitude":-32.74354,"Longitude":118.66775,"Status":"Mineral deposit","Commodity Group":"Nickel +\/- Cobalt +\/- PGE"},{"Name":"Radio Hill","State":"WA","Latitude":-20.9825,"Longitude":116.8648,"Status":"Mine - care and maintenance","Commodity Group":"Nickel +\/- Cobalt +\/- PGE"},{"Name":"Range Well","State":"WA","Latitude":-26.8212,"Longitude":117.7396,"Status":"Mineral deposit","Commodity Group":"Chromium +\/- Cobalt, +\/- PGE +\/- Nickel"},{"Name":"Ravensthorpe","State":"WA","Latitude":-33.64212,"Longitude":120.396308,"Status":"Operating mine","Commodity Group":"Nickel +\/- Cobalt +\/- PGE"},{"Name":"Renner West","State":"NT","Latitude":-18.337327,"Longitude":133.654532,"Status":"Mineral deposit","Commodity Group":"Manganese Ore"},{"Name":"Richmond","State":"QLD","Latitude":-20.4652,"Longitude":142.8024,"Status":"Mine - under development","Commodity Group":"Vanadium, Molybdenum"},{"Name":"Ripon Hills","State":"WA","Latitude":-21.2145,"Longitude":120.7433,"Status":"Mineral deposit","Commodity Group":"Manganese Ore"},{"Name":"Riverina","State":"WA","Latitude":-29.74929,"Longitude":120.559601,"Status":"Mineral deposit","Commodity Group":"Nickel +\/- Cobalt +\/- PGE"},{"Name":"Rocklands","State":"QLD","Latitude":-20.672442,"Longitude":140.363644,"Status":"Mine - care and maintenance","Commodity Group":"Cobalt"},{"Name":"Rockley","State":"NSW","Latitude":-33.7168278,"Longitude":149.5198696,"Status":"Mineral deposit","Commodity Group":"Silicon (High purity silica\/quartz)"},{"Name":"Rosie","State":"WA","Latitude":-27.6246,"Longitude":122.0143,"Status":"Mineral deposit","Commodity Group":"Nickel +\/- Cobalt +\/- PGE"},{"Name":"Rover 1","State":"NT","Latitude":-20.002125,"Longitude":133.656741,"Status":"Mine - under development","Commodity Group":"Bismuth +\/- Cobalt +\/- Indium"},{"Name":"Ruth Well","State":"WA","Latitude":-20.86838,"Longitude":116.865501,"Status":"Mineral deposit","Commodity Group":"Nickel +\/- Cobalt +\/- PGE"},{"Name":"Saint Elmo","State":"QLD","Latitude":-20.5704,"Longitude":141.8848,"Status":"Mine - under development","Commodity Group":"Vanadium, Molybdenum"},{"Name":"Saints","State":"WA","Latitude":-29.99861,"Longitude":121.18528,"Status":"Mineral deposit","Commodity Group":"Nickel +\/- Cobalt +\/- PGE"},{"Name":"Samarkand","State":"NT","Latitude":-22.732161,"Longitude":136.089943,"Status":"Mineral deposit","Commodity Group":"Tungsten"},{"Name":"Savage River","State":"TAS","Latitude":-41.487982,"Longitude":145.204429,"Status":"Operating mine","Commodity Group":"Vanadium"},{"Name":"Savannah","State":"WA","Latitude":-17.3526,"Longitude":128.0277,"Status":"Operating mine","Commodity Group":"Nickel +\/- Cobalt +\/- PGE"},{"Name":"Sconi","State":"QLD","Latitude":-18.972078,"Longitude":144.926742,"Status":"Mine - under development","Commodity Group":"Scandium +\/- Cobalt +\/- PGE +\/- Nickel"},{"Name":"Scott River","State":"WA","Latitude":-34.260116,"Longitude":115.334627,"Status":"Mineral deposit","Commodity Group":"Heavy mineral sands - Titanium, Zirconium"},{"Name":"Screechowl Creek","State":"SA","Latitude":-29.8941444,"Longitude":137.6598047,"Status":"Mineral deposit","Commodity Group":"Magnesium"},{"Name":"Seymour","State":"TAS","Latitude":-41.745128,"Longitude":148.290131,"Status":"Mineral deposit","Commodity Group":"Fluorine"},{"Name":"Sherlock Bay","State":"WA","Latitude":-20.811241,"Longitude":117.540638,"Status":"Mineral deposit","Commodity Group":"Nickel +\/- Cobalt +\/- PGE"},{"Name":"Si2 North","State":"QLD","Latitude":-15,"Longitude":145.2,"Status":"Mineral deposit","Commodity Group":"Silicon (High purity silica\/quartz)"},{"Name":"Siberia","State":"WA","Latitude":-30.247647,"Longitude":120.932102,"Status":"Mineral deposit","Commodity Group":"Scandium +\/- Cobalt +\/- PGE +\/- Nickel"},{"Name":"Sill 80","State":"NT","Latitude":-14.93715489,"Longitude":134.035746,"Status":"Operating mine","Commodity Group":"Titanium"},{"Name":"Silver Knight","State":"WA","Latitude":-31.5915,"Longitude":123.441,"Status":"Mineral deposit","Commodity Group":"Nickel +\/- Cobalt +\/- PGE"},{"Name":"Sinclair","State":"WA","Latitude":-28.37411,"Longitude":120.86445,"Status":"Mineral deposit","Commodity Group":"Nickel +\/- Cobalt +\/- PGE"},{"Name":"Siviour","State":"SA","Latitude":-33.9180094,"Longitude":136.4282836,"Status":"Mine - under development","Commodity Group":"Graphite"},{"Name":"Slopeaway","State":"QLD","Latitude":-22.9385,"Longitude":149.8306,"Status":"Mineral deposit","Commodity Group":"Nickel +\/- Cobalt +\/- PGE"},{"Name":"Sonoran","State":"SA","Latitude":-30.9473013,"Longitude":132.2968443,"Status":"Mineral deposit","Commodity Group":"Heavy mineral sands - Titanium, Zirconium"},{"Name":"South Kambalda","State":"WA","Latitude":-31.627845,"Longitude":121.661257,"Status":"Mine - care and maintenance","Commodity Group":"Nickel +\/- Cobalt +\/- PGE"},{"Name":"South Woodie Woodie","State":"WA","Latitude":-22.340456,"Longitude":121.226102,"Status":"Mineral deposit","Commodity Group":"Manganese Ore"},{"Name":"Spargoville","State":"WA","Latitude":-31.318078,"Longitude":121.491713,"Status":"Mineral deposit","Commodity Group":"Nickel +\/- Cobalt +\/- PGE"},{"Name":"Sparkler A","State":"WA","Latitude":-34.387839,"Longitude":116.714588,"Status":"Mineral deposit","Commodity Group":"Silicon (High purity silica\/quartz)"},{"Name":"Speewah","State":"WA","Latitude":-16.361424,"Longitude":127.949538,"Status":"Mineral deposit","Commodity Group":"Titanium, Vanadium"},{"Name":"Speewah Valley","State":"WA","Latitude":-16.404108,"Longitude":127.978185,"Status":"Mineral deposit","Commodity Group":"Fluorine"},{"Name":"Spinifex Ridge","State":"WA","Latitude":-20.88752,"Longitude":120.1118,"Status":"Mine - care and maintenance","Commodity Group":"Molybdenum +\/- Rhenium"},{"Name":"Splinter Rock","State":"WA","Latitude":-33.31143,"Longitude":123.08313,"Status":"Mineral deposit","Commodity Group":"Rare Earth Elements (REE)"},{"Name":"Split Rocks","State":"WA","Latitude":-31.76566,"Longitude":119.58681,"Status":"Mineral deposit","Commodity Group":"Lithium +\/- Tantalum +\/- Niobium"},{"Name":"Spotted Quoll ","State":"WA","Latitude":-32.47818,"Longitude":119.677803,"Status":"Operating mine","Commodity Group":"Nickel +\/- Cobalt +\/- PGE"},{"Name":"Springdale","State":"WA","Latitude":-33.8938,"Longitude":120.3748,"Status":"Mineral deposit","Commodity Group":"Graphite"},{"Name":"St Dizier","State":"TAS","Latitude":-41.823914,"Longitude":145.135232,"Status":"Mineral deposit","Commodity Group":"Tungsten"},{"Name":"Stanton","State":"NT","Latitude":-16.73,"Longitude":137.75,"Status":"Mineral deposit","Commodity Group":"Nickel +\/- Cobalt +\/- PGE"},{"Name":"Stormont","State":"TAS","Latitude":-41.4978,"Longitude":146.037,"Status":"Mineral deposit","Commodity Group":"Bismuth +\/- Cobalt +\/- Indium"},{"Name":"Sugarbag Hill\u00a0","State":"Qld\u00a0","Latitude":-18.4829,"Longitude":143.6457,"Status":"Mineral deposit","Commodity Group":"Silicon (High purity silica\/quartz)"},{"Name":"Sunrise","State":"NSW","Latitude":-32.756675,"Longitude":147.419584,"Status":"Mine - under development","Commodity Group":"Scandium +\/- Cobalt +\/- PGE +\/- Nickel"},{"Name":"Tallebung","State":"NSW","Latitude":-32.7381,"Longitude":146.5807,"Status":"Mineral deposit","Commodity Group":"Tungsten"},{"Name":"Tambellup","State":"WA","Latitude":-34.0398,"Longitude":117.5314,"Status":"Mineral deposit","Commodity Group":"High Purity Alumina"},{"Name":"Tampu","State":"WA","Latitude":-30.2232,"Longitude":117.8105,"Status":"Mineral deposit","Commodity Group":"High Purity Alumina"},{"Name":"Termination Hill","State":"SA","Latitude":-30.2245884,"Longitude":138.0241536,"Status":"Mineral deposit","Commodity Group":"Magnesium"},{"Name":"The Horn","State":"WA","Latitude":-28.1674,"Longitude":120.9166,"Status":"Mineral deposit","Commodity Group":"Platinum Group Elements (PGE) +\/- Cobalt +\/- Nickel"},{"Name":"Thuddungra","State":"NSW","Latitude":-34.176426,"Longitude":148.050507,"Status":"Operating mine","Commodity Group":"Magnesium"},{"Name":"Thunderbird","State":"WA","Latitude":-17.431715,"Longitude":122.967879,"Status":"Operating mine","Commodity Group":"Heavy mineral sands - Titanium, Zirconium"},{"Name":"Tiger","State":"SA","Latitude":-32.9114151,"Longitude":134.7379919,"Status":"Mineral deposit","Commodity Group":"High Purity Alumina"},{"Name":"TIO","State":"QLD","Latitude":-17.0959611111,"Longitude":144.258247222,"Status":"Mineral deposit","Commodity Group":"Titanium"},{"Name":"Toolebuc","State":"QLD","Latitude":-20.4828,"Longitude":142.851,"Status":"Mineral deposit","Commodity Group":"Vanadium, Molybdenum"},{"Name":"Torrington","State":"NSW","Latitude":-29.269675,"Longitude":151.656264,"Status":"Mineral deposit","Commodity Group":"Tungsten"},{"Name":"Tower","State":"WA","Latitude":-25.623,"Longitude":117.154,"Status":"Mineral deposit","Commodity Group":"Rare Earth Elements (REE)"},{"Name":"Tripitaka","State":"SA","Latitude":-31.5450763,"Longitude":132.8046983,"Status":"Mineral deposit","Commodity Group":"Heavy mineral sands - Titanium, Zirconium"},{"Name":"Triple Four","State":"QLD","Latitude":-22.828725,"Longitude":149.874967,"Status":"Mineral deposit","Commodity Group":"Magnesium"},{"Name":"Trough Well","State":"WA","Latitude":-30.67317,"Longitude":118.8948,"Status":"Mineral deposit","Commodity Group":"Nickel +\/- Cobalt +\/- PGE"},{"Name":"Typhoon","State":"SA","Latitude":-30.9319153,"Longitude":132.2536464,"Status":"Mineral deposit","Commodity Group":"Heavy mineral sands - Titanium, Zirconium"},{"Name":"Uley 2","State":"SA","Latitude":-34.7991864,"Longitude":135.7019497,"Status":"Mine - under development","Commodity Group":"Graphite"},{"Name":"Unaly Hill","State":"WA","Latitude":-28.374215,"Longitude":118.947008,"Status":"Mineral deposit","Commodity Group":"Titanium, Vanadium"},{"Name":"Unicorn","State":"VIC","Latitude":-36.338603,"Longitude":147.989591,"Status":"Mineral deposit","Commodity Group":"Molybdenum +\/- Rhenium"},{"Name":"Urquhart","State":"QLD","Latitude":-12.75,"Longitude":141.8,"Status":"Mineral deposit","Commodity Group":"Heavy mineral sands - Titanium, Zirconium"},{"Name":"Venus ","State":"WA","Latitude":-27.815,"Longitude":120.704,"Status":"Operating mine","Commodity Group":"Nickel +\/- Cobalt +\/- PGE"},{"Name":"Victory Bore","State":"WA","Latitude":-28.261914,"Longitude":118.989033,"Status":"Mineral deposit","Commodity Group":"Vanadium"},{"Name":"Vulcan","State":"QLD","Latitude":-21.0506,"Longitude":140.5476,"Status":"Mineral deposit","Commodity Group":"Cobalt"},{"Name":"Walford Creek","State":"QLD","Latitude":-17.78583,"Longitude":138.28469,"Status":"Mineral deposit","Commodity Group":"Nickel +\/- Cobalt +\/- PGE"},{"Name":"Waterloo","State":"WA","Latitude":-28.14377,"Longitude":120.977997,"Status":"Mine - care and maintenance","Commodity Group":"Nickel +\/- Cobalt +\/- PGE"},{"Name":"Watershed","State":"QLD","Latitude":-16.339283,"Longitude":144.88075,"Status":"Mineral deposit","Commodity Group":"Tungsten"},{"Name":"Wedderburn","State":"VIC","Latitude":-36.21666667,"Longitude":143.6997668,"Status":"Mineral deposit","Commodity Group":"Heavy mineral sands - Titanium, Zirconium, REE"},{"Name":"West Eucla","State":"WA","Latitude":-32.185193,"Longitude":123.199792,"Status":"Mineral deposit","Commodity Group":"Heavy mineral sands - Titanium, Zirconium"},{"Name":"West Jordan","State":"WA","Latitude":-27.0167,"Longitude":120.4361,"Status":"Mineral deposit","Commodity Group":"Nickel +\/- Cobalt +\/- PGE"},{"Name":"West Lynn","State":"NSW","Latitude":-31.498191,"Longitude":147.039105,"Status":"Mineral deposit","Commodity Group":"Nickel +\/- Cobalt +\/- PGE"},{"Name":"West Mount Hut","State":"SA","Latitude":-30.0080864,"Longitude":137.7763076,"Status":"Mineral deposit","Commodity Group":"Magnesium"},{"Name":"West Orient","State":"QLD","Latitude":-17.345484,"Longitude":145.184084,"Status":"Mineral deposit","Commodity Group":"Indium"},{"Name":"White Cloud","State":"WA","Latitude":-30.8363,"Longitude":117.669071,"Status":"Mineral deposit","Commodity Group":"High Purity Alumina"},{"Name":"White Hill","State":"WA","Latitude":-26.7321,"Longitude":116.3843,"Status":"Mineral deposit","Commodity Group":"Silicon (High purity silica\/quartz)"},{"Name":"White Rock","State":"NSW","Latitude":-34.498921,"Longitude":148.904954,"Status":"Mineral deposit","Commodity Group":"Tungsten"},{"Name":"White Violet","State":"NT","Latitude":-22.731629,"Longitude":136.07248,"Status":"Mineral deposit","Commodity Group":"Tungsten"},{"Name":"Whitewash","State":"QLD","Latitude":-24.806472,"Longitude":150.874961,"Status":"Mineral deposit","Commodity Group":"Molybdenum +\/- Rhenium"},{"Name":"Widgie North","State":"WA","Latitude":-31.45588,"Longitude":121.53897,"Status":"Mineral deposit","Commodity Group":"Nickel +\/- Cobalt +\/- PGE"},{"Name":"Widgie South","State":"WA","Latitude":-31.519135,"Longitude":121.587524,"Status":"Mineral deposit","Commodity Group":"Nickel +\/- Cobalt +\/- PGE"},{"Name":"Wilco South","State":"SA","Latitude":-33.2968664,"Longitude":136.4440117,"Status":"Mineral deposit","Commodity Group":"Graphite"},{"Name":"Wilconi","State":"WA","Latitude":-26.60004,"Longitude":120.1965,"Status":"Mineral deposit","Commodity Group":"Nickel +\/- Cobalt +\/- PGE"},{"Name":"Wim 100","State":"VIC","Latitude":-36.95718,"Longitude":141.92579,"Status":"Mineral deposit","Commodity Group":"Heavy mineral sands - Titanium, Zirconium, REE"},{"Name":"Wim 150","State":"VIC","Latitude":-36.8042843,"Longitude":142.3678022,"Status":"Mineral deposit","Commodity Group":"Heavy mineral sands - Titanium, Zirconium, REE"},{"Name":"Winchelsea Island","State":"NT","Latitude":-13.769,"Longitude":136.508,"Status":"Mineral deposit","Commodity Group":"Manganese Ore"},{"Name":"Winchester","State":"NSW","Latitude":-33.34,"Longitude":142.31,"Status":"Mineral deposit","Commodity Group":"Heavy mineral sands - Titanium, Zirconium"},{"Name":"Winchester","State":"NT","Latitude":-13.04618,"Longitude":131.06118,"Status":"Mineral deposit","Commodity Group":"Magnesium"},{"Name":"Windabout","State":"SA","Latitude":-31.3893564,"Longitude":137.1332877,"Status":"Mineral deposit","Commodity Group":"Cobalt"},{"Name":"Windanya-Blue Dam","State":"WA","Latitude":-30.38,"Longitude":121.2538,"Status":"Mineral deposit","Commodity Group":"Nickel +\/- Cobalt +\/- PGE"},{"Name":"Windimurra","State":"WA","Latitude":-28.291621,"Longitude":118.529959,"Status":"Mine - care and maintenance","Commodity Group":"Vanadium"},{"Name":"Wingellina","State":"WA","Latitude":-26.0396,"Longitude":128.9393,"Status":"Mineral deposit","Commodity Group":"Nickel +\/- Cobalt +\/- PGE"},{"Name":"Witchelina","State":"SA","Latitude":-30.1175694,"Longitude":137.9904876,"Status":"Mineral deposit","Commodity Group":"Magnesium"},{"Name":"Wodgina","State":"WA","Latitude":-21.1746131107,"Longitude":118.6763814233,"Status":"Operating mine","Commodity Group":"Lithium +\/- Tantalum +\/- Niobium"},{"Name":"Wolfram Camp","State":"QLD","Latitude":-17.084464,"Longitude":144.969389,"Status":"Mine - care and maintenance","Commodity Group":"Tungsten, Molybdenum"},{"Name":"Wonnerup","State":"WA","Latitude":-33.648089,"Longitude":115.456727,"Status":"Operating mine","Commodity Group":"Heavy mineral sands - Titanium, Zirconium"},{"Name":"Woodie Woodie","State":"WA","Latitude":-21.6387708894,"Longitude":121.2354679692,"Status":"Operating mine","Commodity Group":"Manganese Ore"},{"Name":"Yaamba","State":"QLD","Latitude":-23.078612,"Longitude":150.301034,"Status":"Mineral deposit","Commodity Group":"Magnesium"},{"Name":"Yabbie","State":"NSW","Latitude":-33.52,"Longitude":142.5,"Status":"Mineral deposit","Commodity Group":"Heavy mineral sands - Titanium, Zirconium"},{"Name":"Yakabindie ","State":"WA","Latitude":-27.4555,"Longitude":120.5775,"Status":"Operating mine","Commodity Group":"Nickel +\/- Cobalt +\/- PGE"},{"Name":"Yalbra","State":"WA","Latitude":-25.56112,"Longitude":116.35479,"Status":"Mineral deposit","Commodity Group":"Graphite"},{"Name":"Yalyalup","State":"WA","Latitude":-33.689709,"Longitude":115.472298,"Status":"Operating mine","Commodity Group":"Heavy mineral sands - Titanium, Zirconium"},{"Name":"Yanco Glen","State":"NSW","Latitude":-31.656606,"Longitude":141.538466,"Status":"Mineral deposit","Commodity Group":"Tungsten"},{"Name":"Yangibana","State":"WA","Latitude":-23.9061,"Longitude":116.2959,"Status":"Mine - under development","Commodity Group":"Rare Earth Elements (REE)"},{"Name":"Yarawindah Brook","State":"WA","Latitude":-31.0908,"Longitude":116.2609,"Status":"Mineral deposit","Commodity Group":"Platinum Group Elements (PGE) +\/- Cobalt +\/- Nickel"},{"Name":"Yarrabubba","State":"WA","Latitude":-27.024358,"Longitude":118.705608,"Status":"Mineral deposit","Commodity Group":"Titanium, Vanadium"},{"Name":"Yeelirrie","State":"WA","Latitude":-27.179689,"Longitude":119.904479,"Status":"Mineral deposit","Commodity Group":"Vanadium"},{"Name":"Yendon","State":"VIC","Latitude":-37.6572,"Longitude":143.98,"Status":"Mine - care and maintenance","Commodity Group":"High Purity Alumina"},{"Name":"Yeoval","State":"NSW","Latitude":-32.7299,"Longitude":148.642,"Status":"Mineral deposit","Commodity Group":"Molybdenum +\/- Rhenium"},{"Name":"Yerilla","State":"WA","Latitude":-29.484935,"Longitude":121.905016,"Status":"Mineral deposit","Commodity Group":"Nickel +\/- Cobalt +\/- PGE"},{"Name":"Youanmi","State":"WA","Latitude":-28.608927,"Longitude":118.770521,"Status":"Mineral deposit","Commodity Group":"Titanium, Vanadium"},{"Name":"Young Australian","State":"QLD","Latitude":-21.337814,"Longitude":140.406653,"Status":"Mineral deposit","Commodity Group":"Cobalt"},{"Name":"Zeehan","State":"TAS","Latitude":-41.872027,"Longitude":145.326009,"Status":"Mineral deposit","Commodity Group":"Indium"}]